School,Location,Median_VCE_Score,Median_Price_2023,latitude,longitude
Albert Park College,ALBERT PARK,31,2097000,-37.8447325,144.9476904325354
Alexandra Secondary College,ALEXANDRA,23,420000,-37.19418025,145.70253461322494
Alkira Secondary College,CRANBOURNE NORTH,29,705000,-38.07423045,145.30865437631712
Apollo Bay P-12 College,APOLLO BAY,31,1000000,-38.7533321,143.66117792475438
Ashwood High School,ASHWOOD,32,1310000,-37.8653529,145.10502435327447
Auburn High School,HAWTHORN EAST,31,2215000,42.20705075,-71.83655736487856
Bacchus Marsh College,BACCHUS MARSH,25,657500,-37.6853403,144.4319143375907
Baimbridge College,HAMILTON,24,402500,-37.734427350000004,142.0124871136338
Bairnsdale Secondary College,BAIRNSDALE,26,432500,-37.8289606,147.60388635729674
Balwyn High School,BALWYN NORTH,32,2220000,-37.798089399999995,145.0754158044889
Bannockburn P-12 College,BANNOCKBURN,24,702500,-38.042208349999996,144.1603328586104
Bass Coast College,WONTHAGGI,28,577500,-38.490078249999996,145.2681814718573
Bayswater Secondary College,BAYSWATER,28,873500,-37.8379599,145.26220258147833
Beaufort Secondary College,BEAUFORT,26,465000,-37.437707,143.38358962758844
Beaumaris Secondary College,BEAUMARIS,29,1865000,-37.979012499999996,145.03279864444835
Beechworth Secondary College,BEECHWORTH,26,718000,-36.34742105,146.69151433977527
Gisborne Secondary College,GISBORNE,26,975000,-37.497804099999996,144.5856056805756
Gladstone Park Secondary College,GLADSTONE PARK,27,677500,-37.6886043,144.89038494285714
Glen Waverley Secondary College,GLEN WAVERLEY,33,1750500,-37.87702505,145.16271637796342
Gleneagles Secondary College,ENDEAVOUR HILLS,29,710000,-37.973464050000004,145.27525465728314
Glenroy Secondary College,GLENROY,22,735000,-37.70484365,144.92790085547364
Greensborough Secondary College,GREENSBOROUGH,22,938500,-37.70930235,145.09166550830219
Grovedale College,GROVEDALE,25,630000,-38.21039495,144.32832508089706
Hallam Secondary College,HALLAM,23,660000,-38.0001629,145.2614756
Hampton Park Secondary College,HAMPTON PARK,29,645000,-38.035523299999994,145.25921448062945
Hazel Glen College,DOREEN,26,700000,-37.5987207,145.1213461965237
Healesville High School,HEALESVILLE,25,745000,-37.6440315,145.53037677532046
Heathmont College,HEATHMONT,24,1028000,-37.8378779,145.23231362190677
Highvale Secondary College,GLEN WAVERLEY,29,1750500,-37.8663952,145.17566719140513
Homestead Senior Secondary College,POINT COOK,29,750000,,
Hopetoun P-12 College,HOPETOUN,24,220000,,
Hoppers Crossing Secondary College,HOPPERS CROSSING,27,625000,-37.870174,144.69607084271246
Horsham College,HORSHAM,31,399500,-36.7099092,142.1850962088269
John Monash Science School,CLAYTON,35,1230000,-37.9140339,145.1290906573684
Kambrya College,BERWICK,31,850000,-38.054146,145.34609694440002
Kerang Technical High School,KERANG,23,226500,-35.7261071,143.9131868
Kew High School,KEW EAST,31,4600000,-37.7953511,145.0625438425108
Koo Wee Rup Secondary College,KOO WEE RUP,28,640000,-38.19583915,145.4953108506803
Koonung Secondary College,MONT ALBERT NORTH,32,1751500,-37.802273,145.11653156432334
Korumburra Secondary College,KORUMBURRA,25,476000,-38.44491935,145.80431598163153
Kurunjang Secondary College,MELTON,25,456000,-37.67214515,144.5846358346982
Kyneton High School,KYNETON,28,790000,-37.2499055,144.4585449936394
Lakes Entrance Secondary College,LAKES ENTRANCE,24,525000,-37.8701686,147.99892618345135
Lakeview Senior College,CAROLINE SPRINGS,28,670000,-37.731805550000004,144.74053226359297
Lalor North Secondary College,EPPING,21,639000,-37.6596146,145.03408822334512
Lalor Secondary College,LALOR,25,655000,-37.6716755,145.0295672910746
Lara Secondary College,LARA,25,757500,-38.017827600000004,144.41126889719277
Laverton P-12 College,LAVERTON,22,565000,-37.857155500000005,144.7722086231808
Leongatha Secondary College,LEONGATHA,28,605000,-38.4786029,145.9611845
Lilydale Heights College,LILYDALE,26,775000,-37.74535255,145.34118009421667
Lilydale High School,LILYDALE,28,775000,-37.759326099999996,145.34557944122093
Lorne P-12 College,LORNE,26,1824500,-38.53909225,143.97321484508348
Lowanna College,NEWBOROUGH,24,375000,-38.174923,146.28522247614893
Lyndale Secondary College,DANDENONG NORTH,29,705000,-37.95716685,145.20480621306126
Lyndhurst Secondary College,CRANBOURNE,30,633000,-38.074874,145.26934494724787
Macleod College,MACLEOD,28,1102500,-37.72462205,145.07174896862062
Maffra Secondary College,MAFFRA,25,401000,-37.96411275,146.98261769735026
Mallacoota P-12 College,MALLACOOTA,34,1120000,-37.56013055,149.7530654128965
Manor Lakes P-12 College,WYNDHAM VALE,23,555000,-37.8746022,144.602524832734
Mansfield Secondary College,MANSFIELD,30,730000,-37.06173225,146.09147156556605
Maribyrnong Secondary College,MARIBYRNONG,30,1055000,-37.7795962,144.8878730661228
Maryborough Education Centre,MARYBOROUGH,26,387500,-37.04167325,143.72307089800148
Matthew Flinders Girls Secondary College,GEELONG,27,830000,-38.14918605,144.35329790500867
McClelland Secondary College,FRANKSTON,29,698000,-38.146565100000004,145.1600071783934
McKinnon Secondary College,MCKINNON,33,1130000,-37.9095928,145.04865607379762
Melba Secondary College,CROYDON,29,845500,-37.7960095,145.26157362911962
Melbourne Girls College,RICHMOND,33,1340000,-37.822557950000004,145.01480734037068
Melbourne High School,SOUTH YARRA,36,2700000,-37.83595305,144.99460603069588
Melton Secondary College,MELTON,24,456000,-37.682352449999996,144.5668260246548
Mentone Girls Secondary College,MENTONE,32,1436000,-37.981054400000005,145.05397815198884
Mernda Central P-12 College,MERNDA,28,642500,-37.6053074,145.0904259540647
Mildura Senior College,MILDURA,26,430500,-34.19774055,142.14313960166334
Mill Park Secondary College,EPPING,26,639000,-37.664532550000004,145.06192112501225
Mirboo North Secondary College,MIRBOO NORTH,27,575000,-38.4007353,146.14823646790055
Monbulk College,MONBULK,25,815000,-37.88439555,145.42738191137767
Monterey Secondary College,FRANKSTON NORTH,25,555000,-38.127459349999995,145.1474692237383
Montmorency Secondary College,MONTMORENCY,30,1173500,-37.71334645,145.11314185342366
Mooroolbark College,MOOROOLBARK,28,770500,-37.77425475,145.3155931737819
Mordialloc College,MORDIALLOC,30,1355000,-38.011984,145.09415823659984
Mornington Secondary College,MORNINGTON,27,1050000,-38.21768055,145.05843591431028
Mount Alexander 7-12 College,FLEMINGTON,29,1117500,,
Mount Beauty Secondary College,MOUNT BEAUTY,28,455000,-36.740504650000005,147.16781350283384
Mount Clear College,MOUNT CLEAR,26,500000,-37.60722455,143.87691973108932
Mount Eliza Secondary College,MOUNT ELIZA,29,1782500,-38.19026225,145.09249821759326
Mount Ridley P-12 College,CRAIGIEBURN,25,646000,-37.57836855,144.92109789935952
Mount Rowan Secondary College,WENDOUREE,27,470000,-37.51954885,143.83330335155907
Mount Waverley Secondary College,MOUNT WAVERLEY,31,1407000,-37.868183900000005,145.1322265065197
Myrtleford P-12 College,MYRTLEFORD,30,622000,-36.549642250000005,146.72521002087456
Neerim District Secondary College,NEERIM SOUTH,23,707500,-38.017721699999996,145.95658653663043
Newcomb Secondary College,NEWCOMB,26,544000,-38.17021715,144.3954420177977
Nhill College,NHILL,25,232500,-36.3316989,141.65801876712646
Noble Park Secondary College,NOBLE PARK,25,709000,-37.971413150000004,145.18458858527248
Northcote High School,NORTHCOTE,31,1690000,-37.77390585,144.98916127034062
Northern Bay P-12 College,CORIO,23,487500,,
Norwood Secondary College,RINGWOOD,28,1047500,-37.799702749999994,145.23852094856088
Nossal High School,BERWICK,36,850000,-38.038183700000005,145.33542416956882
Numurkah Secondary College,NUMURKAH,22,400000,-36.0791155,145.4484038317662
Oberon High School,ARMSTRONG CREEK,29,675000,-33.7017727,149.86114587134622
Officer Secondary College,OFFICER,25,700000,-38.0707111,145.41295150093873
Orbost Secondary College,ORBOST,27,350000,-37.7041583,148.46715169475078
Pakenham Secondary College,PAKENHAM,29,638000,-38.07022485,145.47107311335702
Parkdale Secondary College,MORDIALLOC,29,1355000,-37.9903056,145.09561460206237
Pascoe Vale Girls Secondary College,PASCOE VALE,26,897500,-37.71821765,144.93490608560106
Patterson River Secondary College,SEAFORD,25,796500,-38.08400185,145.13599022021728
Phoenix P-12 Community College,SEBASTOPOL,28,460000,,
Point Cook Senior Secondary College,POINT COOK,27,750000,-37.88814285,144.7339575253376
Portland Secondary College,PORTLAND,27,432500,-38.3573285,141.59580846537665
Princes Hill Secondary College,PRINCES HILL,31,1620000,-37.78317785,144.96493807656168
Rainbow P-12 College,RAINBOW,23,152500,-35.894105100000004,141.99653630560206
Red Cliffs Secondary College,RED CLIFFS,22,334000,-34.2995352,142.19539131528876
Reservoir High School,RESERVOIR,26,815000,39.152883700000004,-76.91232879475879
Richmond High School,RICHMOND,28,1340000,39.822579399999995,-84.9022759692013
Ringwood Secondary College,RINGWOOD,30,1047500,-37.815922900000004,145.239698351504
Robinvale College,ROBINVALE,22,280000,-34.58891005,142.78047859924538
Rochester Secondary College,ROCHESTER,27,250000,-36.3525047,144.69848603937857
Rosebud Secondary College,ROSEBUD,28,710500,-38.36830915,144.88682808485433
Rosehill Secondary College,NIDDRIE,28,903000,-37.74698335,144.88454120402184
Rowville Secondary College,ROWVILLE,26,1050000,-37.91993215,145.26445714001522
Roxburgh College,ROXBURGH PARK,24,670000,-37.68041595,144.9165337093701
Rushworth P-12 College,RUSHWORTH,24,272500,-36.5834008,145.01450497499462
Rutherglen High School,RUTHERGLEN,24,595000,55.81299425,-4.181224741115161
Sale College,SALE,26,450000,-38.10877875,147.0673611397487
Sandringham College,SANDRINGHAM,30,2090500,-37.956515800000005,145.0256675981119
Scoresby Secondary College,SCORESBY,27,895000,-37.88888125,145.23738644999997
Seymour College,SEYMOUR,25,520000,-34.9563656,138.6464391
Somerville Secondary College,SOMERVILLE,28,750000,-38.22774685,145.1701814789393
South Oakleigh Secondary College,OAKLEIGH SOUTH,29,1046000,,
Springside West Secondary College,FRASER RISE,27,700000,-37.7147682,144.72936785358877
St Albans Secondary College,ST ALBANS,31,650000,-37.7470407,144.80761764856337
St Helena Secondary College,ELTHAM NORTH,29,1046000,-37.687916099999995,145.13939412744122
Staughton College,MELTON SOUTH,23,495000,-37.7074054,144.56867126415892
Stawell Secondary College,STAWELL,23,325000,-37.0618087,142.79058009644882
Strathmore Secondary College,STRATHMORE,30,1200000,-37.737463000000005,144.92768514891907
Sunbury College,SUNBURY,27,637500,-37.57449655,144.72980740383775
Sunbury Downs Secondary College,SUNBURY,29,637500,-37.5831522,144.7053126850068
Sunshine College,SUNSHINE WEST,25,638000,-37.790698449999994,144.82886214534068
Surf Coast Secondary College,TORQUAY,29,1300000,-38.3040789,144.3238471460465
Suzanne Cory High School,WERRIBEE,35,587000,-37.89404465,144.69937846963887
Swan Hill College,SWAN HILL,28,412000,-35.334394,143.552992026683
Swinburne Senior Secondary College,HAWTHORN,27,2601000,-37.8226772,145.04055691152857
Tallangatta Secondary College,TALLANGATTA,26,401500,-36.2193575,147.1728020013157
Tarneit Senior College,TARNEIT,23,651000,-37.83400665,144.68028038352918
Taylors Lakes Secondary College,TAYLORS LAKES,27,820000,-37.70750755,144.7934566854563
Templestowe College,TEMPLESTOWE LOWER,29,1580000,-37.7669248,145.12297057510946
The Grange P-12 College,HOPPERS CROSSING,25,625000,35.0457314,-89.233732
The Lakes South Morang College,SOUTH MORANG,24,710000,-37.633728149999996,145.07534335954142
Thomastown Secondary College,THOMASTOWN,25,680000,-37.67795865,145.00286797600194
Thornbury High School,THORNBURY,31,1250000,-37.756848149999996,145.0253097877076
Timboon P-12 School,TIMBOON,28,558000,-38.4842453,142.9759756278646
Trafalgar High School,TRAFALGAR,27,455000,-38.21338205000001,146.15840358201325
Traralgon College,TRARALGON,25,449000,-38.200603799999996,146.5131700137847
Tyrrell College,SEA LAKE,25,99500,-35.5103146,142.85350308609395
University High School,PARKVILLE,31,2500000,33.6527931,-117.82356783681985
Upper Yarra Secondary College,YARRA JUNCTION,25,693000,-37.7909514,145.62487422697757
Upwey High School,UPWEY,27,810000,-37.90370795,145.3348573140173
Vermont Secondary College,VERMONT,32,1200000,-37.8437964,145.2009003449635
Viewbank College,VIEWBANK,31,1083000,-37.74158625,145.0864088514616
Virtual School Victoria,THORNBURY,26,1250000,-37.7616302,145.0256561
Wallan Secondary College,WALLAN,21,600000,-37.4181935,144.98056251107246
Wangaratta High School,WANGARATTA,28,460000,-36.34422,146.30869644236174
Warragul Regional College,WARRAGUL,25,616500,-38.165425,145.92277719625974
Warrandyte High School,WARRANDYTE,24,1380000,-37.7465024,145.1851070179093
Wedderburn College,WEDDERBURN,28,357500,-36.4173138,143.61878090826832
Wellington Secondary College,MULGRAVE,28,933000,-37.93317585,145.16962506295098
Werribee Secondary College,WERRIBEE,28,587000,-37.9065954,144.66898914621675
Westall Secondary College,CLAYTON SOUTH,27,942000,-37.9411434,145.13603536063812
Western Port Secondary College,HASTINGS,25,682500,-38.30981455,145.1753201894856
Wheelers Hill Secondary College,WHEELERS HILL,26,1524000,-37.91012815,145.18066781620152
Whittlesea Secondary College,WHITTLESEA,22,712500,-37.51645225,145.12019679681796
William Ruthven Secondary College,RESERVOIR,27,815000,-37.6950814,145.00274007481443
Williamstown High School,WILLIAMSTOWN,32,1390000,39.6824881,-75.01045200850747
Wodonga Senior Secondary College,WODONGA,23,497500,-36.126381300000006,146.8795687599968
Woodmans Hill Secondary College,BALLARAT EAST,29,495000,-37.55960465,143.89478571340294
Wycheproof P-12 College,WYCHEPROOF,29,218000,-36.07542895,143.2294310464262
Wyndham Central Secondary College,WERRIBEE,24,587000,-37.8875618,144.65431454683727
Yarram Secondary College,YARRAM,26,387500,-38.5682388,146.6844649368923
Yarrawonga College P-12,YARRAWONGA,26,591000,,
Yea High School,YEA,25,420000,-37.2156397,145.40791112745094
